[
  {
    "id": "1",
    "location": "Республика 54",
    "type": "CARGO",
    "driver": {
      "id": "1",
      "name": "Duman",
      "phone": "87016727468"
    }
  },
  {
    "id": "2",
    "location": "Республика 1",
    "type": "SPECIAL",
    "driver": {
      "id": "2",
      "name": "Alex",
      "phone": "87085228747"
    }
  },
  {
    "id": "3",
    "location": "Республика 3",
    "type": "CARGO",
    "driver": {
      "id": "3",
      "name": "Andrew",
      "phone": "87075228747"
    }
  },
  {
    "id": "4",
    "location": "Республика 45",
    "type": "PASSENGER",
    "driver": {
      "id": "4",
      "name": "Tate",
      "phone": "87475228747"
    }
  },
  {
    "id": "5",
    "location": "Республика 47",
    "type": "CARGO",
    "driver": {
      "id": "5",
      "name": "Welbex",
      "phone": "87005228747"
    }
  },
  {
    "id": "6",
    "location": "Республика 6",
    "type": "SPECIAL",
    "driver": {
      "id": "6",
      "name": "Max",
      "phone": "87005228747"
    }
  },
  {
    "id": "7",
    "location": "Республика 2",
    "type": "PASSENGER",
    "driver": {
      "id": "7",
      "name": "Sasha",
      "phone": "87025228747"
    }
  },
  {
    "id": "8",
    "location": "Республика 35",
    "type": "CARGO",
    "driver": {
      "id": "8",
      "name": "Andrey",
      "phone": "87035228747"
    }
  },
  {
    "id": "9",
    "location": "Республика 34",
    "type": "PASSENGER",
    "driver": {
      "id": "9",
      "name": "Vova",
      "phone": "87045228747"
    }
  },
  {
    "id": "10",
    "location": "Республика 14",
    "type": "SPECIAL",
    "driver": {
      "id": "10",
      "name": "Boris",
      "phone": "87005228747"
    }
  }
]
